Category Name,Camera Name,View ID,X,Y,Z,heading,pitch,TrackIR Enabled,Smooth Transition,HeadShake,RetainMouseLookPosition, Enable Temporary Positioning,Enable Linear Transition,Linear Transition Frames,Enable Auto Advance,Limit TrackIR, Max TrackIR X,Max TrackIR Y,Max TrackIR Z,Min TrackIR X,Min TrackIR Y,Min TrackIR Z,Zoom,FOV,Enable FOV,Smooth Camera Joins, Enable Track Heading, Enable Track Pitch, CGY Offset, CGZ Offset, Enable Level Camera, Enable View Axis, Enable External Camera, Enable Cineflex Camera, Enable Free Camera, Initial Movement Range, Enable Bezier Transition, Run Code,Transition Seconds,Hidden Camera,X-Camera Version,Default FOV,Aircraft,Author,Camera File Version,Category Index,Manual Enable, Latitude,Longitude, Elevation, X-Plane 9 Chase View, roll, Target Following Camera, Scenic Flyer GA Panel, Scenic Flyer Glass Panel, Cinema Verite, CGX Offset, Hide Yoke, Enable Camera Axis, Enable XPRealistic, Enable RealView, Disable 3D Cockpit Zoom, AGL Camera, Height ABove AGL (Meters),Circle View, Transition Delay, Script ID, Camera Origin,Target Reciprocal 
Cockpit,Pilot View,11,-0.332349,0.916449,-0.618660,0.312500,359.178467,FALSE,TRUE,TRUE,TRUE,TRUE,FALSE,0,FALSE,FALSE,0.000000,0.437303,-0.843881,-0.546797,0.340253,-1.669999,1.000000,70.000000,FALSE,FALSE,FALSE,FALSE,0.000000,0.000000,FALSE,FALSE,FALSE,FALSE,FALSE,1,FALSE,19901,0.0,FALSE,2.4.2,80.000000,C90B, ,2020-10-20 09:26:54 ,0,FALSE,0,0,0,FALSE,0.000000,FALSE,FALSE,FALSE,FALSE,0.000000,0,FALSE,FALSE,FALSE,FALSE,FALSE,0.000000,FALSE,0.0,0,0,FALSE
Cockpit,PFD,5,-0.370578,0.768402,-0.939763,2.531250,358.000000,FALSE,TRUE,FALSE,FALSE,TRUE,FALSE,0,FALSE,FALSE,0.000000,0.000000,0.000000,0.000000,0.000000,0.000000,1.000000,70.000000,FALSE,FALSE,FALSE,FALSE,0.000000,0.000000,FALSE,FALSE,FALSE,FALSE,FALSE,1,FALSE,19901,0.0,FALSE,2.4.2,80.000000,C90B, ,2020-10-20 09:26:54 ,0,FALSE,0,0,0,FALSE,0.000000,FALSE,FALSE,FALSE,FALSE,0.000000,0,FALSE,FALSE,FALSE,FALSE,FALSE,0.000000,FALSE,0.0,0,0,FALSE
Cockpit,Autopilot - Radios,6,0.114732,0.727584,-0.910392,0.000000,0.000000,FALSE,TRUE,FALSE,FALSE,TRUE,FALSE,0,FALSE,FALSE,0.000000,0.000000,0.000000,0.000000,0.000000,0.000000,1.000000,70.000000,FALSE,FALSE,FALSE,FALSE,0.000000,0.000000,FALSE,FALSE,FALSE,FALSE,FALSE,1,FALSE,19901,0.0,FALSE,2.4.2,80.000000,C90B, ,2020-10-20 09:26:54 ,0,FALSE,0,0,0,FALSE,0.000000,FALSE,FALSE,FALSE,FALSE,0.000000,0,FALSE,FALSE,FALSE,FALSE,FALSE,0.000000,FALSE,0.0,0,0,FALSE
Cockpit,Throttles,3,-0.040943,0.794447,-0.963850,0.937488,303.500092,FALSE,TRUE,FALSE,FALSE,FALSE,FALSE,0,FALSE,FALSE,0.000000,0.000000,0.000000,0.000000,0.000000,0.000000,1.000000,70.000000,FALSE,FALSE,FALSE,FALSE,0.000000,0.000000,FALSE,FALSE,FALSE,FALSE,FALSE,1,FALSE,19901,0.0,FALSE,2.4.2,80.000000,C90B, ,2020-10-20 09:26:54 ,0,FALSE,0,0,0,FALSE,0.000000,FALSE,FALSE,FALSE,FALSE,0.000000,0,FALSE,FALSE,FALSE,FALSE,FALSE,0.000000,FALSE,0.0,0,0,FALSE
Cockpit,Autopilot - Control Panel,1,-0.025268,0.514214,-0.923187,0.000000,266.000000,FALSE,TRUE,FALSE,FALSE,TRUE,FALSE,0,FALSE,FALSE,0.000000,0.000000,0.000000,0.000000,0.000000,0.000000,1.000000,70.000000,FALSE,FALSE,FALSE,FALSE,0.000000,0.000000,FALSE,FALSE,FALSE,FALSE,FALSE,1,FALSE,19901,0.0,FALSE,2.4.2,80.000000,C90B, ,2020-10-20 09:26:54 ,0,FALSE,0,0,0,FALSE,0.000000,FALSE,FALSE,FALSE,FALSE,0.000000,0,FALSE,FALSE,FALSE,FALSE,FALSE,0.000000,FALSE,0.0,0,0,FALSE
Cockpit,Left Panel Switches,2,-0.375578,0.495902,-0.959763,0.000000,0.000000,FALSE,TRUE,FALSE,FALSE,FALSE,FALSE,0,FALSE,FALSE,0.000000,0.000000,0.000000,0.000000,0.000000,0.000000,1.000000,70.000000,FALSE,FALSE,FALSE,FALSE,0.000000,0.000000,FALSE,FALSE,FALSE,FALSE,FALSE,1,FALSE,19901,0.0,FALSE,2.4.2,80.000000,C90B, ,2020-10-20 09:26:54 ,0,FALSE,0,0,0,FALSE,0.000000,FALSE,FALSE,FALSE,FALSE,0.000000,1,FALSE,FALSE,FALSE,FALSE,FALSE,0.000000,FALSE,0.0,0,0,FALSE
Cockpit,Right Pianel Switches,4,0.337232,0.542582,-0.955392,0.000000,0.000000,FALSE,TRUE,TRUE,FALSE,FALSE,FALSE,0,FALSE,FALSE,0.514224,0.476983,-0.721984,-0.270000,0.209482,-1.669999,1.000000,70.000000,FALSE,FALSE,FALSE,FALSE,0.000000,0.000000,FALSE,FALSE,FALSE,FALSE,FALSE,1,FALSE,19901,0.0,FALSE,2.4.2,80.000000,C90B, ,2020-10-20 09:26:54 ,0,FALSE,0,0,0,FALSE,0.000000,FALSE,FALSE,FALSE,FALSE,0.000000,1,FALSE,FALSE,FALSE,FALSE,FALSE,0.000000,FALSE,0.0,0,0,FALSE
Cockpit,Copilot,7,0.312232,0.923052,-0.438449,307.687500,20.000000,FALSE,TRUE,TRUE,TRUE,TRUE,FALSE,0,FALSE,FALSE,0.514224,0.476983,-0.721984,-0.270000,0.209482,-1.669999,1.000000,70.000000,FALSE,FALSE,FALSE,FALSE,0.000000,0.000000,FALSE,FALSE,FALSE,FALSE,FALSE,1,FALSE,19901,0.0,FALSE,2.4.2,80.000000,C90B, ,2020-10-20 09:26:54 ,0,FALSE,0,0,0,FALSE,0.000000,FALSE,FALSE,FALSE,FALSE,0.000000,0,FALSE,FALSE,FALSE,FALSE,FALSE,0.000000,FALSE,0.0,0,0,FALSE
Cockpit,Right Cockpit Window,0,0.344873,0.911284,-0.553792,37.312508,0.000000,FALSE,TRUE,FALSE,FALSE,FALSE,FALSE,0,FALSE,FALSE,0.000000,0.000000,0.000000,0.000000,0.000000,0.000000,1.000000,70.000000,FALSE,FALSE,FALSE,FALSE,0.000000,0.000000,FALSE,FALSE,FALSE,FALSE,FALSE,1,FALSE,19901,0.0,FALSE,2.4.2,80.000000,C90B, ,2020-10-20 09:26:54 ,0,FALSE,0,0,0,FALSE,0.000000,FALSE,FALSE,FALSE,FALSE,0.000000,0,FALSE,FALSE,FALSE,FALSE,FALSE,0.000000,FALSE,0.0,0,0,FALSE
Cockpit,Left Window,0,-0.363101,0.920273,-0.545379,318.562469,357.833038,FALSE,TRUE,FALSE,FALSE,FALSE,FALSE,0,FALSE,FALSE,0.000000,0.000000,0.000000,0.000000,0.000000,0.000000,1.000000,70.000000,FALSE,FALSE,FALSE,FALSE,0.000000,0.000000,FALSE,FALSE,FALSE,FALSE,FALSE,1,FALSE,19901,0.0,FALSE,2.4.2,80.000000,C90B, ,2020-10-20 09:26:54 ,0,FALSE,0,0,0,FALSE,0.000000,FALSE,FALSE,FALSE,FALSE,0.000000,0,FALSE,FALSE,FALSE,FALSE,FALSE,0.000000,FALSE,0.0,0,0,FALSE
Cockpit,Overhead Panel,9,0.003182,0.874843,-0.728926,0.140625,70.406898,FALSE,FALSE,FALSE,TRUE,TRUE,FALSE,0,FALSE,FALSE,0.000000,0.437303,-0.843881,-0.546797,0.340253,-1.669999,1.000000,70.000000,FALSE,FALSE,FALSE,FALSE,0.000000,0.000000,FALSE,FALSE,FALSE,FALSE,FALSE,1,FALSE,19901,0.0,FALSE,2.4.2,80.000000,C90B, ,2020-10-20 09:26:54 ,0,FALSE,0,0,0,FALSE,0.000000,FALSE,FALSE,FALSE,FALSE,0.000000,0,FALSE,FALSE,FALSE,FALSE,FALSE,0.000000,FALSE,0.0,0,0,FALSE
Cockpit,Fuel Panel,8,-0.352645,0.734798,-1.110554,276.859375,342.287323,FALSE,TRUE,FALSE,TRUE,TRUE,FALSE,0,FALSE,FALSE,0.000000,0.437303,-0.843881,-0.546797,0.340253,-1.669999,1.000000,70.000000,FALSE,FALSE,FALSE,FALSE,0.000000,0.000000,FALSE,FALSE,FALSE,FALSE,FALSE,1,FALSE,19901,0.0,FALSE,2.4.2,80.000000,C90B, ,2020-10-20 09:26:54 ,0,FALSE,0,0,0,FALSE,0.000000,FALSE,FALSE,FALSE,FALSE,0.000000,0,FALSE,FALSE,FALSE,FALSE,FALSE,0.000000,FALSE,0.0,0,0,FALSE
Cockpit,Annunciator Panel,10,-0.015268,0.907584,-0.945392,0.000000,0.000000,FALSE,TRUE,FALSE,TRUE,TRUE,FALSE,0,FALSE,FALSE,0.000000,0.000000,0.000000,0.000000,0.000000,0.000000,1.000000,70.000000,FALSE,FALSE,FALSE,FALSE,0.000000,0.000000,FALSE,FALSE,FALSE,FALSE,FALSE,1,FALSE,19901,0.0,FALSE,2.4.2,80.000000,C90B, ,2020-10-20 09:26:54 ,0,FALSE,0,0,0,FALSE,0.000000,FALSE,FALSE,FALSE,FALSE,0.000000,0,FALSE,FALSE,FALSE,FALSE,FALSE,0.000000,FALSE,0.0,0,0,FALSE
External,Nose,0,0.000000,3.000000,-12.000000,180.000000,346.000000,FALSE,FALSE,FALSE,FALSE,FALSE,TRUE,0,FALSE,FALSE,0.000000,0.000000,0.000000,0.000000,0.000000,0.000000,1.000000,70.000000,FALSE,FALSE,FALSE,FALSE,0.000000,0.000000,FALSE,FALSE,FALSE,FALSE,FALSE,2,FALSE,19901,0.0,FALSE,2.4.2,80.000000,C90B, ,2020-10-20 09:26:54 ,1,FALSE,0,0,0,FALSE,0.000000,FALSE,FALSE,FALSE,FALSE,0.000000,0,FALSE,FALSE,FALSE,FALSE,FALSE,0.000000,FALSE,0.0,0,0,FALSE
External,Left Wing,0,-11.000000,3.000000,0.000000,90.000000,346.000000,FALSE,FALSE,FALSE,FALSE,FALSE,FALSE,0,FALSE,FALSE,0.000000,0.000000,0.000000,0.000000,0.000000,0.000000,1.000000,70.000000,FALSE,FALSE,FALSE,FALSE,0.000000,0.000000,FALSE,FALSE,FALSE,FALSE,FALSE,2,FALSE,19901,0.0,FALSE,2.4.2,80.000000,C90B, ,2020-10-20 09:26:54 ,1,FALSE,0,0,0,FALSE,0.000000,FALSE,FALSE,FALSE,FALSE,0.000000,0,FALSE,FALSE,FALSE,FALSE,FALSE,0.000000,FALSE,0.0,0,0,FALSE
External,Left Flaps,0,-7.000000,3.000000,4.500000,70.000000,346.000000,FALSE,TRUE,FALSE,FALSE,FALSE,FALSE,0,FALSE,FALSE,0.000000,0.000000,0.000000,0.000000,0.000000,0.000000,1.000000,70.000000,FALSE,FALSE,FALSE,FALSE,0.000000,0.000000,FALSE,FALSE,FALSE,FALSE,FALSE,2,FALSE,19901,0.0,FALSE,2.4.2,80.000000,C90B, ,2020-10-20 09:26:54 ,1,FALSE,0,0,0,FALSE,0.000000,FALSE,FALSE,FALSE,FALSE,0.000000,0,FALSE,FALSE,FALSE,FALSE,FALSE,0.000000,FALSE,0.0,0,0,FALSE
External,Left Stabilizer,0,-4.000000,3.000000,9.000000,45.000000,346.000000,FALSE,TRUE,FALSE,FALSE,FALSE,FALSE,0,FALSE,FALSE,0.000000,0.000000,0.000000,0.000000,0.000000,0.000000,1.000000,70.000000,FALSE,FALSE,FALSE,FALSE,0.000000,0.000000,FALSE,FALSE,FALSE,FALSE,FALSE,2,FALSE,19901,0.0,FALSE,2.4.2,80.000000,C90B, ,2020-10-20 09:26:54 ,1,FALSE,0,0,0,FALSE,0.000000,FALSE,FALSE,FALSE,FALSE,0.000000,0,FALSE,FALSE,FALSE,FALSE,FALSE,0.000000,FALSE,0.0,0,0,FALSE
External,Tail,0,0.000000,0.000000,17.308670,357.759460,89.223228,FALSE,TRUE,FALSE,FALSE,FALSE,FALSE,0,FALSE,FALSE,0.000000,0.000000,0.000000,0.000000,0.000000,0.000000,1.000000,70.000000,FALSE,FALSE,TRUE,TRUE,0.000000,0.000000,FALSE,FALSE,TRUE,FALSE,FALSE,2,FALSE,19901,0.0,FALSE,2.4.2,80.000000,C90B, ,2020-10-20 09:26:54 ,1,FALSE,0,0,0,FALSE,0.000000,FALSE,FALSE,TRUE,FALSE,0.000000,0,FALSE,FALSE,FALSE,FALSE,FALSE,0.000000,FALSE,0.0,30,0,FALSE
External,Right Stabilizar,0,4.000000,3.000000,9.000000,315.000000,346.000000,FALSE,TRUE,FALSE,FALSE,FALSE,FALSE,0,FALSE,FALSE,0.000000,0.000000,0.000000,0.000000,0.000000,0.000000,1.000000,70.000000,FALSE,FALSE,FALSE,FALSE,0.000000,0.000000,FALSE,FALSE,FALSE,FALSE,FALSE,2,FALSE,19901,0.0,FALSE,2.4.2,80.000000,C90B, ,2020-10-20 09:26:54 ,1,FALSE,0,0,0,FALSE,0.000000,FALSE,FALSE,FALSE,FALSE,0.000000,0,FALSE,FALSE,FALSE,FALSE,FALSE,0.000000,FALSE,0.0,0,0,FALSE
External,Right Flaps,0,7.000000,3.000000,4.500000,290.000000,346.000000,FALSE,TRUE,FALSE,FALSE,FALSE,FALSE,0,FALSE,FALSE,0.000000,0.000000,0.000000,0.000000,0.000000,0.000000,1.000000,70.000000,FALSE,FALSE,FALSE,FALSE,0.000000,0.000000,FALSE,FALSE,FALSE,FALSE,FALSE,2,FALSE,19901,0.0,FALSE,2.4.2,80.000000,C90B, ,2020-10-20 09:26:54 ,1,FALSE,0,0,0,FALSE,0.000000,FALSE,FALSE,FALSE,FALSE,0.000000,0,FALSE,FALSE,FALSE,FALSE,FALSE,0.000000,FALSE,0.0,0,0,FALSE
External,Right Wing,0,17.186468,5.882264,0.000000,270.000000,346.000000,FALSE,TRUE,FALSE,FALSE,FALSE,FALSE,0,FALSE,FALSE,0.000000,0.000000,0.000000,0.000000,0.000000,0.000000,1.000000,70.000000,FALSE,FALSE,FALSE,FALSE,0.000000,0.000000,FALSE,FALSE,FALSE,FALSE,FALSE,2,FALSE,19901,0.0,FALSE,2.4.2,80.000000,C90B, ,2020-10-20 09:26:54 ,1,FALSE,0,0,0,FALSE,0.000000,FALSE,FALSE,FALSE,FALSE,0.000000,0,FALSE,FALSE,FALSE,FALSE,FALSE,0.000000,FALSE,0.0,0,0,FALSE
Gear,Left Main Gear,0,-2.097232,0.202584,2.439608,15.000000,346.000000,FALSE,FALSE,FALSE,FALSE,FALSE,FALSE,0,FALSE,FALSE,0.000000,0.000000,0.000000,0.000000,0.000000,0.000000,1.000000,70.000000,FALSE,FALSE,FALSE,FALSE,0.000000,0.000000,FALSE,FALSE,FALSE,FALSE,FALSE,2,FALSE,19901,0.0,FALSE,2.4.2,80.000000,C90B, ,2020-10-20 09:26:54 ,2,FALSE,0,0,0,FALSE,0.000000,FALSE,FALSE,FALSE,FALSE,0.000000,0,FALSE,FALSE,FALSE,FALSE,FALSE,0.000000,FALSE,0.0,0,0,FALSE
Gear,Right Main Gear,0,2.048936,0.152584,2.452549,345.000000,349.549438,FALSE,FALSE,FALSE,FALSE,FALSE,FALSE,0,FALSE,FALSE,0.000000,0.000000,0.000000,0.000000,0.000000,0.000000,1.000000,70.000000,FALSE,FALSE,FALSE,FALSE,0.000000,0.000000,FALSE,FALSE,FALSE,FALSE,FALSE,2,FALSE,19901,0.0,FALSE,2.4.2,80.000000,C90B, ,2020-10-20 09:26:54 ,2,FALSE,0,0,0,FALSE,0.000000,FALSE,FALSE,FALSE,FALSE,0.000000,0,FALSE,FALSE,FALSE,FALSE,FALSE,0.000000,FALSE,0.0,0,0,FALSE
Gear,Nose Gear,0,0.030000,0.297500,-5.500000,180.000000,349.549438,FALSE,FALSE,FALSE,FALSE,FALSE,FALSE,0,FALSE,FALSE,0.000000,0.000000,0.000000,0.000000,0.000000,0.000000,1.000000,70.000000,FALSE,FALSE,FALSE,FALSE,0.000000,0.000000,FALSE,FALSE,FALSE,FALSE,FALSE,1,FALSE,19901,0.0,FALSE,2.4.2,80.000000,C90B, ,2020-10-20 09:26:54 ,2,FALSE,0,0,0,FALSE,0.000000,FALSE,FALSE,FALSE,FALSE,0.000000,0,FALSE,FALSE,FALSE,FALSE,FALSE,0.000000,FALSE,0.0,0,0,FALSE
Cabin,Left,0,-0.291140,0.851719,1.061432,314.250092,358.166656,FALSE,TRUE,FALSE,FALSE,FALSE,FALSE,40,FALSE,FALSE,0.000000,0.437303,-0.843881,-0.546797,0.340253,-1.669999,1.000000,70.000000,FALSE,FALSE,FALSE,FALSE,0.000000,0.000000,FALSE,FALSE,FALSE,FALSE,FALSE,1,FALSE,19901,0.0,FALSE,2.4.2,80.000000,C90B, ,2020-10-20 09:26:54 ,3,FALSE,0,0,0,FALSE,0.000000,FALSE,FALSE,FALSE,FALSE,0.000000,0,FALSE,FALSE,FALSE,FALSE,FALSE,0.000000,FALSE,0.0,0,0,FALSE
Cabin,Right,0,0.361301,0.852725,1.070783,36.000008,358.333618,FALSE,TRUE,FALSE,FALSE,FALSE,FALSE,40,FALSE,FALSE,0.000000,0.437303,-0.843881,-0.546797,0.340253,-1.669999,1.000000,70.000000,FALSE,FALSE,FALSE,FALSE,0.000000,0.000000,FALSE,FALSE,FALSE,FALSE,FALSE,1,FALSE,19901,0.0,FALSE,2.4.2,80.000000,C90B, ,2020-10-20 09:26:54 ,3,FALSE,0,0,0,FALSE,0.000000,FALSE,FALSE,FALSE,FALSE,0.000000,0,FALSE,FALSE,FALSE,FALSE,FALSE,0.000000,FALSE,0.0,0,0,FALSE
Orbit 1,Orbit 1 - 0,0,18.910372,5.000000,6.511364,289.000000,345.963745,FALSE,FALSE,FALSE,FALSE,FALSE,FALSE,0,TRUE,FALSE,0.000000,0.000000,0.000000,0.000000,0.000000,0.000000,1.000000,75.000000,FALSE,FALSE,TRUE,TRUE,0.000000,0.000000,FALSE,FALSE,TRUE,FALSE,FALSE,2,FALSE,19901,0.0,FALSE,2.4.2,80.000000,C90B, ,2020-10-20 09:26:54 ,4,FALSE,0,0,0,FALSE,0.000000,FALSE,FALSE,FALSE,FALSE,0.000000,0,FALSE,FALSE,FALSE,FALSE,FALSE,0.000000,FALSE,0.0,0,0,FALSE
Orbit 1,Orbit 1 - 1,0,17.492393,3.263515,9.696193,298.715637,350.590118,FALSE,FALSE,FALSE,FALSE,FALSE,TRUE,0,TRUE,FALSE,0.000000,0.000000,0.000000,0.000000,0.000000,0.000000,1.000000,75.000000,FALSE,FALSE,TRUE,TRUE,0.000000,0.000000,FALSE,FALSE,TRUE,FALSE,FALSE,2,FALSE,19901,0.8,TRUE,2.4.2,80.000000,C90B, ,2020-10-20 09:26:54 ,4,FALSE,0,0,0,FALSE,0.000000,FALSE,FALSE,FALSE,FALSE,0.000000,0,FALSE,FALSE,FALSE,FALSE,FALSE,0.000000,FALSE,0.0,0,0,FALSE
Orbit 1,Orbit 1 - 2,0,15.542919,1.579796,12.586408,308.707245,355.340637,FALSE,FALSE,FALSE,FALSE,FALSE,TRUE,0,TRUE,FALSE,0.000000,0.000000,0.000000,0.000000,0.000000,0.000000,1.000000,75.000000,FALSE,FALSE,TRUE,TRUE,0.000000,0.000000,FALSE,FALSE,TRUE,FALSE,FALSE,2,FALSE,19901,0.8,TRUE,2.4.2,80.000000,C90B, ,2020-10-20 09:26:54 ,4,FALSE,0,0,0,FALSE,0.000000,FALSE,FALSE,FALSE,FALSE,0.000000,0,FALSE,FALSE,FALSE,FALSE,FALSE,0.000000,FALSE,0.0,0,0,FALSE
Orbit 1,Orbit 1 - 3,0,13.121181,-0.000002,15.094191,318.707275,359.866852,FALSE,FALSE,FALSE,FALSE,FALSE,TRUE,0,TRUE,FALSE,0.000000,0.000000,0.000000,0.000000,0.000000,0.000000,1.000000,75.000000,FALSE,FALSE,TRUE,TRUE,0.000000,0.000000,FALSE,FALSE,TRUE,FALSE,FALSE,2,FALSE,19901,0.8,TRUE,2.4.2,80.000000,C90B, ,2020-10-20 09:26:54 ,4,FALSE,0,0,0,FALSE,0.000000,FALSE,FALSE,FALSE,FALSE,0.000000,0,FALSE,FALSE,FALSE,FALSE,FALSE,0.000000,FALSE,0.0,0,0,FALSE
Orbit 1,Orbit 1 - 4,0,10.300762,-1.427877,17.143345,328.707214,3.965636,FALSE,FALSE,FALSE,FALSE,FALSE,TRUE,0,TRUE,FALSE,0.000000,0.000000,0.000000,0.000000,0.000000,0.000000,1.000000,75.000000,FALSE,FALSE,TRUE,TRUE,0.000000,0.000000,FALSE,FALSE,TRUE,FALSE,FALSE,2,FALSE,19901,0.8,TRUE,2.4.2,80.000000,C90B, ,2020-10-20 09:26:54 ,4,FALSE,0,0,0,FALSE,0.000000,FALSE,FALSE,FALSE,FALSE,0.000000,0,FALSE,FALSE,FALSE,FALSE,FALSE,0.000000,FALSE,0.0,0,0,FALSE
Orbit 1,Orbit 1 - 5,0,7.167361,-2.660445,18.671608,338.707245,7.478271,FALSE,FALSE,FALSE,FALSE,FALSE,TRUE,0,TRUE,FALSE,0.000000,0.000000,0.000000,0.000000,0.000000,0.000000,1.000000,75.000000,FALSE,FALSE,TRUE,TRUE,0.000000,0.000000,FALSE,FALSE,TRUE,FALSE,FALSE,2,FALSE,19901,0.8,TRUE,2.4.2,80.000000,C90B, ,2020-10-20 09:26:54 ,4,FALSE,0,0,0,FALSE,0.000000,FALSE,FALSE,FALSE,FALSE,0.000000,0,FALSE,FALSE,FALSE,FALSE,FALSE,0.000000,FALSE,0.0,0,0,FALSE
Orbit 1,Orbit 1 - 6,0,3.816183,-3.660254,19.632544,348.707245,10.293908,FALSE,FALSE,FALSE,FALSE,FALSE,TRUE,0,TRUE,FALSE,0.000000,0.000000,0.000000,0.000000,0.000000,0.000000,1.000000,75.000000,FALSE,FALSE,TRUE,TRUE,0.000000,0.000000,FALSE,FALSE,TRUE,FALSE,FALSE,2,FALSE,19901,0.8,TRUE,2.4.2,80.000000,C90B, ,2020-10-20 09:26:54 ,4,FALSE,0,0,0,FALSE,0.000000,FALSE,FALSE,FALSE,FALSE,0.000000,0,FALSE,FALSE,FALSE,FALSE,FALSE,0.000000,FALSE,0.0,0,0,FALSE
Orbit 1,Orbit 1 - 7,0,0.349052,-4.396926,19.996954,358.707245,12.345003,FALSE,FALSE,FALSE,FALSE,FALSE,TRUE,0,TRUE,FALSE,0.000000,0.000000,0.000000,0.000000,0.000000,0.000000,1.000000,75.000000,FALSE,FALSE,TRUE,TRUE,0.000000,0.000000,FALSE,FALSE,TRUE,FALSE,FALSE,2,FALSE,19901,0.8,TRUE,2.4.2,80.000000,C90B, ,2020-10-20 09:26:54 ,4,FALSE,0,0,0,FALSE,0.000000,FALSE,FALSE,FALSE,FALSE,0.000000,0,FALSE,FALSE,FALSE,FALSE,FALSE,0.000000,FALSE,0.0,0,0,FALSE
Orbit 1,Orbit 1 - 8,0,-3.128690,-4.848078,19.753767,8.707253,13.595642,FALSE,FALSE,FALSE,FALSE,FALSE,TRUE,0,TRUE,FALSE,0.000000,0.000000,0.000000,0.000000,0.000000,0.000000,1.000000,75.000000,FALSE,FALSE,TRUE,TRUE,0.000000,0.000000,FALSE,FALSE,TRUE,FALSE,FALSE,2,FALSE,19901,0.8,TRUE,2.4.2,80.000000,C90B, ,2020-10-20 09:26:54 ,4,FALSE,0,0,0,FALSE,0.000000,FALSE,FALSE,FALSE,FALSE,0.000000,0,FALSE,FALSE,FALSE,FALSE,FALSE,0.000000,FALSE,0.0,0,0,FALSE
Orbit 1,Orbit 1 - 9,0,-6.511363,-5.000000,18.910372,18.707214,14.030040,FALSE,FALSE,FALSE,FALSE,FALSE,TRUE,0,TRUE,FALSE,0.000000,0.000000,0.000000,0.000000,0.000000,0.000000,1.000000,75.000000,FALSE,FALSE,TRUE,TRUE,0.000000,0.000000,FALSE,FALSE,TRUE,FALSE,FALSE,2,FALSE,19901,0.8,TRUE,2.4.2,80.000000,C90B, ,2020-10-20 09:26:54 ,4,FALSE,0,0,0,FALSE,0.000000,FALSE,FALSE,FALSE,FALSE,0.000000,0,FALSE,FALSE,FALSE,FALSE,FALSE,0.000000,FALSE,0.0,0,0,FALSE
Orbit 1,Orbit 1 - 10,0,-9.696192,-4.848078,17.492393,28.698360,13.644196,FALSE,FALSE,FALSE,FALSE,FALSE,TRUE,0,TRUE,FALSE,0.000000,0.000000,0.000000,0.000000,0.000000,0.000000,1.000000,75.000000,FALSE,FALSE,TRUE,TRUE,0.000000,0.000000,FALSE,FALSE,TRUE,FALSE,FALSE,2,FALSE,19901,0.8,TRUE,2.4.2,80.000000,C90B, ,2020-10-20 09:26:54 ,4,FALSE,0,0,0,FALSE,0.000000,FALSE,FALSE,FALSE,FALSE,0.000000,0,FALSE,FALSE,FALSE,FALSE,FALSE,0.000000,FALSE,0.0,0,0,FALSE
Orbit 1,Orbit 1 - 11,0,-12.586408,-4.396927,15.542918,38.698372,12.441733,FALSE,FALSE,FALSE,FALSE,FALSE,TRUE,0,TRUE,FALSE,0.000000,0.000000,0.000000,0.000000,0.000000,0.000000,1.000000,75.000000,FALSE,FALSE,TRUE,TRUE,0.000000,0.000000,FALSE,FALSE,TRUE,FALSE,FALSE,2,FALSE,19901,0.8,TRUE,2.4.2,80.000000,C90B, ,2020-10-20 09:26:54 ,4,FALSE,0,0,0,FALSE,0.000000,FALSE,FALSE,FALSE,FALSE,0.000000,0,FALSE,FALSE,FALSE,FALSE,FALSE,0.000000,FALSE,0.0,0,0,FALSE
Orbit 1,Orbit 1 - 12,0,-15.094191,-3.660254,13.121181,48.698391,10.437502,FALSE,FALSE,FALSE,FALSE,FALSE,TRUE,0,TRUE,FALSE,0.000000,0.000000,0.000000,0.000000,0.000000,0.000000,1.000000,75.000000,FALSE,FALSE,TRUE,TRUE,0.000000,0.000000,FALSE,FALSE,TRUE,FALSE,FALSE,2,FALSE,19901,0.8,TRUE,2.4.2,80.000000,C90B, ,2020-10-20 09:26:54 ,4,FALSE,0,0,0,FALSE,0.000000,FALSE,FALSE,FALSE,FALSE,0.000000,0,FALSE,FALSE,FALSE,FALSE,FALSE,0.000000,FALSE,0.0,0,0,FALSE
Orbit 1,Orbit 1 - 13,0,-17.143347,-2.660446,10.300761,58.698380,7.665779,FALSE,FALSE,FALSE,FALSE,FALSE,TRUE,0,TRUE,FALSE,0.000000,0.000000,0.000000,0.000000,0.000000,0.000000,1.000000,75.000000,FALSE,FALSE,TRUE,TRUE,0.000000,0.000000,FALSE,FALSE,TRUE,FALSE,FALSE,2,FALSE,19901,0.8,TRUE,2.4.2,80.000000,C90B, ,2020-10-20 09:26:54 ,4,FALSE,0,0,0,FALSE,0.000000,FALSE,FALSE,FALSE,FALSE,0.000000,0,FALSE,FALSE,FALSE,FALSE,FALSE,0.000000,FALSE,0.0,0,0,FALSE
Orbit 1,Orbit 1 - 14,0,-18.671608,-1.427876,7.167359,68.698357,4.191943,FALSE,FALSE,FALSE,FALSE,FALSE,TRUE,0,TRUE,FALSE,0.000000,0.000000,0.000000,0.000000,0.000000,0.000000,1.000000,75.000000,FALSE,FALSE,TRUE,TRUE,0.000000,0.000000,FALSE,FALSE,TRUE,FALSE,FALSE,2,FALSE,19901,0.8,TRUE,2.4.2,80.000000,C90B, ,2020-10-20 09:26:54 ,4,FALSE,0,0,0,FALSE,0.000000,FALSE,FALSE,FALSE,FALSE,0.000000,0,FALSE,FALSE,FALSE,FALSE,FALSE,0.000000,FALSE,0.0,0,0,FALSE
Orbit 1,Orbit 1 - 15,0,-19.632544,0.000000,3.816181,78.698387,0.124012,FALSE,FALSE,FALSE,FALSE,FALSE,TRUE,0,TRUE,FALSE,0.000000,0.000000,0.000000,0.000000,0.000000,0.000000,1.000000,75.000000,FALSE,FALSE,TRUE,TRUE,0.000000,0.000000,FALSE,FALSE,TRUE,FALSE,FALSE,2,FALSE,19901,0.8,TRUE,2.4.2,80.000000,C90B, ,2020-10-20 09:26:54 ,4,FALSE,0,0,0,FALSE,0.000000,FALSE,FALSE,FALSE,FALSE,0.000000,0,FALSE,FALSE,FALSE,FALSE,FALSE,0.000000,FALSE,0.0,0,0,FALSE
Orbit 1,Orbit 1 - 16,0,-19.996954,1.579798,0.349048,88.698372,355.617981,FALSE,FALSE,FALSE,FALSE,FALSE,TRUE,0,TRUE,FALSE,0.000000,0.000000,0.000000,0.000000,0.000000,0.000000,1.000000,75.000000,FALSE,FALSE,TRUE,TRUE,0.000000,0.000000,FALSE,FALSE,TRUE,FALSE,FALSE,2,FALSE,19901,0.8,TRUE,2.4.2,80.000000,C90B, ,2020-10-20 09:26:54 ,4,FALSE,0,0,0,FALSE,0.000000,FALSE,FALSE,FALSE,FALSE,0.000000,0,FALSE,FALSE,FALSE,FALSE,FALSE,0.000000,FALSE,0.0,0,0,FALSE
Orbit 1,Orbit 1 - 17,0,-19.753767,3.263518,-3.128689,98.698380,350.870819,FALSE,FALSE,FALSE,FALSE,FALSE,TRUE,0,TRUE,FALSE,0.000000,0.000000,0.000000,0.000000,0.000000,0.000000,1.000000,75.000000,FALSE,FALSE,TRUE,TRUE,0.000000,0.000000,FALSE,FALSE,TRUE,FALSE,FALSE,2,FALSE,19901,0.8,TRUE,2.4.2,80.000000,C90B, ,2020-10-20 09:26:54 ,4,FALSE,0,0,0,FALSE,0.000000,FALSE,FALSE,FALSE,FALSE,0.000000,0,FALSE,FALSE,FALSE,FALSE,FALSE,0.000000,FALSE,0.0,0,0,FALSE
Orbit 1,Orbit 1 - 18,0,-18.910372,4.999999,-6.511362,108.688934,346.104034,FALSE,FALSE,FALSE,FALSE,FALSE,TRUE,0,TRUE,FALSE,0.000000,0.000000,0.000000,0.000000,0.000000,0.000000,1.000000,75.000000,FALSE,FALSE,TRUE,TRUE,0.000000,0.000000,FALSE,FALSE,TRUE,FALSE,FALSE,2,FALSE,19901,0.8,TRUE,2.4.2,80.000000,C90B, ,2020-10-20 09:26:54 ,4,FALSE,0,0,0,FALSE,0.000000,FALSE,FALSE,FALSE,FALSE,0.000000,0,FALSE,FALSE,FALSE,FALSE,FALSE,0.000000,FALSE,0.0,0,0,FALSE
Orbit 1,Orbit 1 - 19,0,-17.492393,6.736483,-9.696191,118.688904,341.517059,FALSE,FALSE,FALSE,FALSE,FALSE,TRUE,0,TRUE,FALSE,0.000000,0.000000,0.000000,0.000000,0.000000,0.000000,1.000000,75.000000,FALSE,FALSE,TRUE,TRUE,0.000000,0.000000,FALSE,FALSE,TRUE,FALSE,FALSE,2,FALSE,19901,0.8,TRUE,2.4.2,80.000000,C90B, ,2020-10-20 09:26:54 ,4,FALSE,0,0,0,FALSE,0.000000,FALSE,FALSE,FALSE,FALSE,0.000000,0,FALSE,FALSE,FALSE,FALSE,FALSE,0.000000,FALSE,0.0,0,0,FALSE
Orbit 1,Orbit 1 - 20,0,-15.542921,8.420202,-12.586407,128.688934,337.287201,FALSE,FALSE,FALSE,FALSE,FALSE,TRUE,0,TRUE,FALSE,0.000000,0.000000,0.000000,0.000000,0.000000,0.000000,1.000000,75.000000,FALSE,FALSE,TRUE,TRUE,0.000000,0.000000,FALSE,FALSE,TRUE,FALSE,FALSE,2,FALSE,19901,0.8,TRUE,2.4.2,80.000000,C90B, ,2020-10-20 09:26:54 ,4,FALSE,0,0,0,FALSE,0.000000,FALSE,FALSE,FALSE,FALSE,0.000000,0,FALSE,FALSE,FALSE,FALSE,FALSE,0.000000,FALSE,0.0,0,0,FALSE
Orbit 1,Orbit 1 - 21,0,-13.121180,10.000000,-15.094193,138.688965,333.537659,FALSE,FALSE,FALSE,FALSE,FALSE,TRUE,0,TRUE,FALSE,0.000000,0.000000,0.000000,0.000000,0.000000,0.000000,1.000000,75.000000,FALSE,FALSE,TRUE,TRUE,0.000000,0.000000,FALSE,FALSE,TRUE,FALSE,FALSE,2,FALSE,19901,0.8,TRUE,2.4.2,80.000000,C90B, ,2020-10-20 09:26:54 ,4,FALSE,0,0,0,FALSE,0.000000,FALSE,FALSE,FALSE,FALSE,0.000000,0,FALSE,FALSE,FALSE,FALSE,FALSE,0.000000,FALSE,0.0,0,0,FALSE
Orbit 1,Orbit 1 - 22,0,-10.300760,11.427876,-17.143347,148.688965,330.341705,FALSE,FALSE,FALSE,FALSE,FALSE,TRUE,0,TRUE,FALSE,0.000000,0.000000,0.000000,0.000000,0.000000,0.000000,1.000000,75.000000,FALSE,FALSE,TRUE,TRUE,0.000000,0.000000,FALSE,FALSE,TRUE,FALSE,FALSE,2,FALSE,19901,0.8,TRUE,2.4.2,80.000000,C90B, ,2020-10-20 09:26:54 ,4,FALSE,0,0,0,FALSE,0.000000,FALSE,FALSE,FALSE,FALSE,0.000000,0,FALSE,FALSE,FALSE,FALSE,FALSE,0.000000,FALSE,0.0,0,0,FALSE
Orbit 1,Orbit 1 - 23,0,-7.167358,12.660444,-18.671610,158.688919,327.732208,FALSE,FALSE,FALSE,FALSE,FALSE,TRUE,0,TRUE,FALSE,0.000000,0.000000,0.000000,0.000000,0.000000,0.000000,1.000000,75.000000,FALSE,FALSE,TRUE,TRUE,0.000000,0.000000,FALSE,FALSE,TRUE,FALSE,FALSE,2,FALSE,19901,0.8,TRUE,2.4.2,80.000000,C90B, ,2020-10-20 09:26:54 ,4,FALSE,0,0,0,FALSE,0.000000,FALSE,FALSE,FALSE,FALSE,0.000000,0,FALSE,FALSE,FALSE,FALSE,FALSE,0.000000,FALSE,0.0,0,0,FALSE
Orbit 1,Orbit 1 - 24,0,-3.816180,13.660254,-19.632544,168.688934,325.715240,FALSE,FALSE,FALSE,FALSE,FALSE,TRUE,0,TRUE,FALSE,0.000000,0.000000,0.000000,0.000000,0.000000,0.000000,1.000000,75.000000,FALSE,FALSE,TRUE,TRUE,0.000000,0.000000,FALSE,FALSE,TRUE,FALSE,FALSE,2,FALSE,19901,0.8,TRUE,2.4.2,80.000000,C90B, ,2020-10-20 09:26:54 ,4,FALSE,0,0,0,FALSE,0.000000,FALSE,FALSE,FALSE,FALSE,0.000000,0,FALSE,FALSE,FALSE,FALSE,FALSE,0.000000,FALSE,0.0,0,0,FALSE
Orbit 1,Orbit 1 - 25,0,-0.349049,14.396926,-19.996954,178.688934,324.282867,FALSE,FALSE,FALSE,FALSE,FALSE,TRUE,0,TRUE,FALSE,0.000000,0.000000,0.000000,0.000000,0.000000,0.000000,1.000000,75.000000,FALSE,FALSE,TRUE,TRUE,0.000000,0.000000,FALSE,FALSE,TRUE,FALSE,FALSE,2,FALSE,19901,0.8,TRUE,2.4.2,80.000000,C90B, ,2020-10-20 09:26:54 ,4,FALSE,0,0,0,FALSE,0.000000,FALSE,FALSE,FALSE,FALSE,0.000000,0,FALSE,FALSE,FALSE,FALSE,FALSE,0.000000,FALSE,0.0,0,0,FALSE
Orbit 1,Orbit 1 - 26,0,3.128687,14.848078,-19.753767,188.688934,323.423157,FALSE,FALSE,FALSE,FALSE,FALSE,TRUE,0,TRUE,FALSE,0.000000,0.000000,0.000000,0.000000,0.000000,0.000000,1.000000,75.000000,FALSE,FALSE,TRUE,TRUE,0.000000,0.000000,FALSE,FALSE,TRUE,FALSE,FALSE,2,FALSE,19901,0.8,TRUE,2.4.2,80.000000,C90B, ,2020-10-20 09:26:54 ,4,FALSE,0,0,0,FALSE,0.000000,FALSE,FALSE,FALSE,FALSE,0.000000,0,FALSE,FALSE,FALSE,FALSE,FALSE,0.000000,FALSE,0.0,0,0,FALSE
Orbit 1,Orbit 1 - 27,0,6.511361,15.000000,-18.910372,198.688934,323.126190,FALSE,FALSE,FALSE,FALSE,FALSE,TRUE,0,TRUE,FALSE,0.000000,0.000000,0.000000,0.000000,0.000000,0.000000,1.000000,75.000000,FALSE,FALSE,TRUE,TRUE,0.000000,0.000000,FALSE,FALSE,TRUE,FALSE,FALSE,2,FALSE,19901,0.8,TRUE,2.4.2,80.000000,C90B, ,2020-10-20 09:26:54 ,4,FALSE,0,0,0,FALSE,0.000000,FALSE,FALSE,FALSE,FALSE,0.000000,0,FALSE,FALSE,FALSE,FALSE,FALSE,0.000000,FALSE,0.0,0,0,FALSE
Orbit 1,Orbit 1 - 28,0,9.696194,14.848078,-17.492393,208.688950,323.388275,FALSE,FALSE,FALSE,FALSE,FALSE,TRUE,0,TRUE,FALSE,0.000000,0.000000,0.000000,0.000000,0.000000,0.000000,1.000000,75.000000,FALSE,FALSE,TRUE,TRUE,0.000000,0.000000,FALSE,FALSE,TRUE,FALSE,FALSE,2,FALSE,19901,0.8,TRUE,2.4.2,80.000000,C90B, ,2020-10-20 09:26:54 ,4,FALSE,0,0,0,FALSE,0.000000,FALSE,FALSE,FALSE,FALSE,0.000000,0,FALSE,FALSE,FALSE,FALSE,FALSE,0.000000,FALSE,0.0,0,0,FALSE
Orbit 1,Orbit 1 - 29,0,12.586409,14.396926,-15.542918,218.678970,324.211548,FALSE,FALSE,FALSE,FALSE,FALSE,TRUE,0,TRUE,FALSE,0.000000,0.000000,0.000000,0.000000,0.000000,0.000000,1.000000,75.000000,FALSE,FALSE,TRUE,TRUE,0.000000,0.000000,FALSE,FALSE,TRUE,FALSE,FALSE,2,FALSE,19901,0.8,TRUE,2.4.2,80.000000,C90B, ,2020-10-20 09:26:54 ,4,FALSE,0,0,0,FALSE,0.000000,FALSE,FALSE,FALSE,FALSE,0.000000,0,FALSE,FALSE,FALSE,FALSE,FALSE,0.000000,FALSE,0.0,0,0,FALSE
Orbit 1,Orbit 1 - 30,0,15.094193,13.660254,-13.121181,228.678894,325.607391,FALSE,FALSE,FALSE,FALSE,FALSE,TRUE,0,TRUE,FALSE,0.000000,0.000000,0.000000,0.000000,0.000000,0.000000,1.000000,75.000000,FALSE,FALSE,TRUE,TRUE,0.000000,0.000000,FALSE,FALSE,TRUE,FALSE,FALSE,2,FALSE,19901,0.8,TRUE,2.4.2,80.000000,C90B, ,2020-10-20 09:26:54 ,4,FALSE,0,0,0,FALSE,0.000000,FALSE,FALSE,FALSE,FALSE,0.000000,0,FALSE,FALSE,FALSE,FALSE,FALSE,0.000000,FALSE,0.0,0,0,FALSE
Orbit 1,Orbit 1 - 31,0,17.143343,12.660444,-10.300766,238.678909,327.587067,FALSE,FALSE,FALSE,FALSE,FALSE,TRUE,0,TRUE,FALSE,0.000000,0.000000,0.000000,0.000000,0.000000,0.000000,1.000000,75.000000,FALSE,FALSE,TRUE,TRUE,0.000000,0.000000,FALSE,FALSE,TRUE,FALSE,FALSE,2,FALSE,19901,0.8,TRUE,2.4.2,80.000000,C90B, ,2020-10-20 09:26:54 ,4,FALSE,0,0,0,FALSE,0.000000,FALSE,FALSE,FALSE,FALSE,0.000000,0,FALSE,FALSE,FALSE,FALSE,FALSE,0.000000,FALSE,0.0,0,0,FALSE
Orbit 1,Orbit 1 - 32,0,18.671610,11.427876,-7.167356,248.678925,330.159119,FALSE,FALSE,FALSE,FALSE,FALSE,TRUE,0,TRUE,FALSE,0.000000,0.000000,0.000000,0.000000,0.000000,0.000000,1.000000,75.000000,FALSE,FALSE,TRUE,TRUE,0.000000,0.000000,FALSE,FALSE,TRUE,FALSE,FALSE,2,FALSE,19901,0.8,TRUE,2.4.2,80.000000,C90B, ,2020-10-20 09:26:54 ,4,FALSE,0,0,0,FALSE,0.000000,FALSE,FALSE,FALSE,FALSE,0.000000,0,FALSE,FALSE,FALSE,FALSE,FALSE,0.000000,FALSE,0.0,0,0,FALSE
Orbit 1,Orbit 1 - 33,0,19.632545,10.000000,-3.816177,258.678894,333.318604,FALSE,FALSE,FALSE,FALSE,FALSE,TRUE,0,TRUE,FALSE,0.000000,0.000000,0.000000,0.000000,0.000000,0.000000,1.000000,75.000000,FALSE,FALSE,TRUE,TRUE,0.000000,0.000000,FALSE,FALSE,TRUE,FALSE,FALSE,2,FALSE,19901,0.8,TRUE,2.4.2,80.000000,C90B, ,2020-10-20 09:26:54 ,4,FALSE,0,0,0,FALSE,0.000000,FALSE,FALSE,FALSE,FALSE,0.000000,0,FALSE,FALSE,FALSE,FALSE,FALSE,0.000000,FALSE,0.0,0,0,FALSE
Orbit 1,Orbit 1 - 34,0,19.996954,8.420201,-0.349046,268.678894,337.034760,FALSE,FALSE,FALSE,FALSE,FALSE,TRUE,0,TRUE,FALSE,0.000000,0.000000,0.000000,0.000000,0.000000,0.000000,1.000000,75.000000,FALSE,FALSE,TRUE,TRUE,0.000000,0.000000,FALSE,FALSE,TRUE,FALSE,FALSE,2,FALSE,19901,0.8,TRUE,2.4.2,80.000000,C90B, ,2020-10-20 09:26:54 ,4,FALSE,0,0,0,FALSE,0.000000,FALSE,FALSE,FALSE,FALSE,0.000000,0,FALSE,FALSE,FALSE,FALSE,FALSE,0.000000,FALSE,0.0,0,0,FALSE
Orbit 1,Orbit 1 - 35,0,19.753765,6.736482,3.128691,278.678894,341.237335,FALSE,FALSE,FALSE,FALSE,FALSE,TRUE,0,TRUE,FALSE,0.000000,0.000000,0.000000,0.000000,0.000000,0.000000,1.000000,75.000000,FALSE,FALSE,TRUE,TRUE,0.000000,0.000000,FALSE,FALSE,TRUE,FALSE,FALSE,2,FALSE,19901,0.8,TRUE,2.4.2,80.000000,C90B, ,2020-10-20 09:26:54 ,4,FALSE,0,0,0,FALSE,0.000000,FALSE,FALSE,FALSE,FALSE,0.000000,0,FALSE,FALSE,FALSE,FALSE,FALSE,0.000000,FALSE,0.0,0,0,FALSE
Orbit 1,Orbit 1 - 36,0,18.910372,5.000000,6.511364,289.000000,345.963745,FALSE,FALSE,FALSE,FALSE,FALSE,TRUE,0,FALSE,FALSE,0.000000,0.000000,0.000000,0.000000,0.000000,0.000000,1.000000,75.000000,FALSE,FALSE,TRUE,TRUE,0.000000,0.000000,FALSE,FALSE,TRUE,FALSE,FALSE,2,FALSE,19901,0.8,TRUE,2.4.2,80.000000,C90B, ,2020-10-20 09:26:54 ,4,FALSE,0,0,0,FALSE,0.000000,FALSE,FALSE,FALSE,FALSE,0.000000,0,FALSE,FALSE,FALSE,FALSE,FALSE,0.000000,FALSE,0.0,0,0,FALSE
FlyBy 1,FlyBy 1 - 0,0,250.000000,35.000000,-9.999997,267.709381,352.036682,FALSE,FALSE,FALSE,FALSE,FALSE,FALSE,0,TRUE,FALSE,0.000000,0.000000,0.000000,0.000000,0.000000,0.000000,1.000000,75.000000,FALSE,FALSE,TRUE,TRUE,0.000000,0.000000,FALSE,FALSE,TRUE,FALSE,FALSE,2,FALSE,19901,0.0,FALSE,2.4.2,80.000000,C90B, ,2020-10-20 09:26:54 ,5,FALSE,0,0,0,FALSE,0.000000,FALSE,FALSE,FALSE,FALSE,0.000000,0,FALSE,FALSE,FALSE,FALSE,FALSE,0.000000,FALSE,0.0,0,0,FALSE
FlyBy 1,FlyBy 1 - 1,0,-150.000000,-15.000000,-10.000009,93.814079,5.698028,FALSE,FALSE,FALSE,FALSE,FALSE,TRUE,0,FALSE,FALSE,0.000000,0.000000,0.000000,0.000000,0.000000,0.000000,1.000000,75.000000,FALSE,FALSE,TRUE,TRUE,0.000000,0.000000,FALSE,FALSE,TRUE,FALSE,FALSE,2,FALSE,19901,20.0,TRUE,2.4.2,80.000000,C90B, ,2020-10-20 09:26:54 ,5,FALSE,0,0,0,FALSE,0.000000,FALSE,FALSE,FALSE,FALSE,0.000000,0,FALSE,FALSE,FALSE,FALSE,FALSE,0.000000,FALSE,0.0,0,0,FALSE
FlyBy 2,FlyBy 2 - 0,0,50.000023,35.000000,-260.000000,190.885529,352.469543,FALSE,FALSE,FALSE,FALSE,FALSE,FALSE,0,TRUE,FALSE,0.000000,0.000000,0.000000,0.000000,0.000000,0.000000,1.000000,75.000000,FALSE,FALSE,TRUE,TRUE,0.000000,0.000000,FALSE,FALSE,TRUE,FALSE,FALSE,2,FALSE,19901,0.0,FALSE,2.4.2,80.000000,C90B, ,2020-10-20 09:26:54 ,6,FALSE,0,0,0,FALSE,0.000000,FALSE,FALSE,FALSE,FALSE,0.000000,0,FALSE,FALSE,FALSE,FALSE,FALSE,0.000000,FALSE,0.0,0,0,FALSE
FlyBy 2,FlyBy 2 - 1,0,50.000000,-15.000000,240.000000,330.007629,359.806854,FALSE,FALSE,FALSE,FALSE,FALSE,TRUE,0,FALSE,FALSE,0.000000,0.000000,0.000000,0.000000,0.000000,0.000000,1.000000,75.000000,FALSE,FALSE,TRUE,TRUE,0.000000,0.000000,FALSE,FALSE,TRUE,FALSE,FALSE,2,FALSE,19901,30.0,TRUE,2.4.2,80.000000,C90B, ,2020-10-20 09:26:54 ,6,FALSE,0,0,0,FALSE,0.000000,FALSE,FALSE,FALSE,FALSE,0.000000,0,FALSE,FALSE,FALSE,FALSE,FALSE,0.000000,FALSE,0.0,0,0,FALSE
